City_ID,City,Lat,Lng,Max Temp,Humidity,Cloudiness,Wind Speed,Country,Date
0,bilibino,68.0546,166.4372,285.43,38,11,2.46,RU,1684993471
1,selfoss,63.9331,-20.9971,278.73,80,100,9.46,IS,1684993471
2,qaqortoq,60.7167,-46.0333,273.76,99,100,3.39,GL,1684993471
3,pisco,-13.7,-76.2167,293.18,83,20,2.57,PE,1684993471
4,waitangi,-43.9535,-176.5597,285.27,79,38,3.13,NZ,1684993471
5,loreto,22.2667,-101.9667,293.29,60,8,3.74,MX,1684993472
6,blackmans bay,-43.0167,147.3167,286.22,73,43,5.91,AU,1684993472
7,hotan,37.0997,79.9269,296.85,25,95,6.07,CN,1684993472
8,ushuaia,-54.8,-68.3,276.96,70,20,3.09,AR,1684993472
9,laza,46.65,27.5833,292.44,68,11,5.09,RO,1684993473
10,cabo san lucas,22.8909,-109.9124,299.76,63,100,7.59,MX,1684993473
11,anadyr,64.75,177.4833,276.43,74,0,3.0,RU,1684993473
12,ilha de mocambique,-15.0342,40.7358,298.16,67,1,2.47,MZ,1684993473
13,adamstown,-25.066,-130.1015,296.64,71,76,2.04,PN,1684993474
14,haiku-pauwela,20.9219,-156.3051,297.16,71,75,6.69,US,1684993474
15,longyearbyen,78.2186,15.6401,275.06,75,75,4.63,SJ,1684993271
16,wailua homesteads,22.0669,-159.378,298.39,79,75,7.2,US,1684993474
17,puerto baquerizo moreno,-0.9,-89.6,298.74,74,3,4.39,EC,1684993475
18,isafjordur,66.0755,-23.124,278.1,73,60,10.93,IS,1684993475
19,klyuchi,52.2667,79.1667,293.32,22,76,4.65,RU,1684993475
20,colonia,50.9333,6.95,284.79,83,0,0.51,DE,1684993456
21,yellowknife,62.456,-114.3525,286.44,67,20,2.06,CA,1684993201
22,mato verde,-15.3972,-42.8664,289.58,94,0,2.27,BR,1684993476
23,bethel,41.3712,-73.414,285.64,77,75,3.6,US,1684993476
24,midvagur,62.0511,-7.1939,280.61,76,20,10.29,FO,1684993476
25,nar'yan-mar,67.6713,53.087,293.04,54,98,4.97,RU,1684993477
26,edinburgh of the seven seas,-37.0676,-12.3116,288.59,80,97,13.75,SH,1684993477
27,truth or consequences,33.1284,-107.2528,295.46,14,0,4.63,US,1684993477
28,kavalerovo,44.2661,135.0572,300.0,28,29,6.1,RU,1684993477
29,horta,38.5333,-28.6333,288.72,79,25,2.68,PT,1684993477
30,port-aux-francais,-49.35,70.2167,279.55,98,100,8.17,TF,1684993478
31,bredasdorp,-34.5322,20.0403,286.31,84,100,4.47,ZA,1684993478
32,tazovsky,67.4667,78.7,275.37,96,99,3.7,RU,1684993478
33,salinas,36.6777,-121.6555,286.8,82,100,5.14,US,1684993478
34,spring creek,40.7266,-115.5859,282.98,87,98,1.01,US,1684993479
35,codrington,-38.2667,141.9667,286.32,59,77,7.36,AU,1684993479
36,kawambwa,-9.7915,29.0791,292.85,68,11,3.58,ZM,1684993479
37,woolgoolga,-30.1106,153.2007,296.08,57,14,4.98,AU,1684993262
38,danville,36.586,-79.395,286.12,87,0,0.45,US,1684993193
39,puerto natales,-51.7236,-72.4875,271.71,86,75,1.26,CL,1684993298
40,banda aceh,5.5577,95.3222,302.04,77,67,8.04,ID,1684993480
41,ulsteinvik,62.3432,5.8487,282.46,83,91,7.15,NO,1684993480
42,bodaybo,57.8506,114.1933,278.18,96,100,1.03,RU,1684993480
43,tiksi,71.6872,128.8694,272.47,74,25,1.79,RU,1684993481
44,kodiak,57.79,-152.4072,279.88,81,100,3.09,US,1684993481
45,sokhumi,43.0033,41.0153,293.98,74,83,1.34,GE,1684993481
46,la passe,45.5549,-0.8967,286.49,81,88,5.51,FR,1684993481
47,iqaluit,63.7506,-68.5145,272.0,80,100,3.09,CA,1684993481
48,presque isle,46.6811,-68.0159,280.39,84,100,5.14,US,1684993480
49,salinopolis,-0.6136,-47.3561,298.25,91,96,4.06,BR,1684993482
50,talnakh,69.4865,88.3972,273.82,97,100,2.64,RU,1684993482
51,shingu,33.7333,135.9833,293.81,73,72,3.02,JP,1684993482
52,caibarien,22.5206,-79.4669,295.77,79,70,1.94,CU,1684993483
53,grants,35.1473,-107.8514,287.28,26,0,1.54,US,1684993483
54,badger,64.8,-147.5333,292.1,43,100,4.63,US,1684993483
55,chonchi,-42.6128,-73.8092,281.71,92,70,7.22,CL,1684993483
56,whitehorse,60.7161,-135.0538,288.16,50,20,4.63,CA,1684993277
57,hamilton,39.1834,-84.5333,288.84,61,0,5.14,US,1684993223
58,aqadyr,48.2553,72.8483,294.66,28,44,4.96,KZ,1684993484
59,moroni,-11.7022,43.2551,300.15,74,20,3.09,KM,1684993484
60,college,64.8569,-147.8028,292.14,43,75,4.63,US,1684993484
61,ingeniero jacobacci,-41.3427,-69.5448,277.52,69,33,12.25,AR,1684993485
62,georgetown,5.4112,100.3354,306.12,66,40,5.14,MY,1684993485
63,port mathurin,-19.6833,63.4167,298.39,71,57,4.34,MU,1684993485
64,devils lake,48.1128,-98.8651,288.21,78,0,7.2,US,1684993485
65,westport,41.1415,-73.3579,287.14,77,100,4.12,US,1684993486
66,antalaha,-14.9003,50.2788,297.35,80,72,1.35,MG,1684993486
67,crane,31.3974,-102.3501,297.84,65,69,5.95,US,1684993486
68,grytviken,-54.2811,-36.5092,271.82,59,96,2.28,GS,1684993486
69,vilyuchinsk,52.9306,158.4028,285.3,76,50,1.65,RU,1684993487
70,megion,61.0296,76.1136,286.16,31,28,4.14,RU,1684993487
71,nemuro,43.3236,145.575,286.69,71,0,6.93,JP,1684993487
72,mpika,-11.8343,31.4529,291.69,63,2,3.0,ZM,1684993487
73,lihue,21.9789,-159.3672,298.73,79,75,7.2,US,1684993488
74,santa cruz,-17.8,-63.1667,294.27,97,77,4.21,BO,1684993488
75,puerto deseado,-47.7503,-65.8938,280.61,55,54,11.3,AR,1684993488
76,kualakapuas,-3.0091,114.3876,307.22,45,78,1.99,ID,1684993488
77,sinan,34.8262,126.1086,297.21,72,23,4.35,KR,1684993488
78,carnarvon,-24.8667,113.6333,297.35,54,100,7.14,AU,1684993489
79,thompson,55.7435,-97.8558,288.24,38,75,3.09,CA,1684993489
80,olonkinbyen,70.9221,-8.7187,270.57,91,100,16.32,SJ,1684993489
81,santana,-0.0583,-51.1817,299.25,100,40,0.0,BR,1684993489
82,plymouth,41.8334,-70.8328,285.41,82,100,5.66,US,1684993490
83,patterson,37.4716,-121.1297,291.12,63,2,1.67,US,1684993490
84,howard springs,-12.497,131.047,303.1,58,40,4.7,AU,1684993490
85,aasiaat,68.7098,-52.8699,266.93,86,100,3.32,GL,1684993490
86,bechar,31.6167,-2.2167,292.33,39,0,4.12,DZ,1684993265
87,stanley,54.868,-1.6985,283.65,93,20,1.54,GB,1684993491
88,sisimiut,66.9395,-53.6735,271.6,69,88,3.3,GL,1684993491
89,remire-montjoly,4.9167,-52.2667,297.17,100,100,1.03,GF,1684993491
90,niamey,13.5137,2.1098,303.31,51,0,3.09,NE,1684993491
91,zaysan,47.4667,84.8667,294.85,30,6,8.86,KZ,1684993299
92,ribeira grande,38.5167,-28.7,289.14,79,8,2.68,PT,1684993492
93,biltine,14.5333,20.9167,307.11,26,21,2.86,TD,1684993492
94,avarua,-21.2078,-159.775,298.18,83,54,4.12,CK,1684993492
95,taoudenni,22.6783,-3.9836,299.43,35,100,2.42,ML,1684993492
96,egilsstadir,65.2653,-14.3948,279.1,52,40,5.66,IS,1684993493
97,sandnessjoen,66.0217,12.6316,278.44,83,75,7.72,NO,1684993493
98,margaret river,-33.95,115.0667,289.2,50,52,5.19,AU,1684993493
99,kromy,52.6876,35.7667,291.56,77,100,3.86,RU,1684993493
100,zapolyarnyy,69.4154,30.8136,283.75,46,99,10.06,RU,1684993493
101,sao felix do xingu,-6.6447,-51.995,294.92,92,97,1.43,BR,1684993491
102,santa ana,33.7456,-117.8678,290.37,77,100,3.09,US,1684993494
103,itamaraca,-7.7478,-34.8256,297.18,86,14,2.89,BR,1684993494
104,laguna,38.421,-121.4238,290.62,77,0,5.14,US,1684993494
105,queenstown,-31.8976,26.8753,287.46,31,96,3.71,ZA,1684993495
106,qarazhal,48.0078,70.7903,295.98,27,15,4.89,KZ,1684993495
107,lompoc,34.6391,-120.4579,286.77,89,100,3.09,US,1684993390
108,ad douiem,14.0012,32.3116,308.5,27,5,3.43,SD,1684993496
109,bangassou,4.7413,22.8184,298.43,69,55,1.36,CF,1684993496
110,papatowai,-46.5619,169.4708,286.52,68,98,4.62,NZ,1684993496
111,mutoko,-17.397,32.2268,290.71,61,0,1.06,ZW,1684993496
112,fale old settlement,-9.3852,-171.2468,301.57,70,56,0.87,TK,1684993496
113,chernyshevskiy,63.0128,112.4714,280.89,55,100,4.49,RU,1684993497
114,hithadhoo,-0.6,73.0833,302.12,73,94,5.49,MV,1684993497
115,west island,-12.1568,96.8225,300.14,83,75,12.35,CC,1684993497
116,rongelap,11.1635,166.8941,301.08,78,97,6.53,MH,1684993497
117,arkalyk,50.2486,66.9114,297.58,23,0,4.39,KZ,1684993497
118,chumphon,10.3333,98.8333,305.56,48,80,4.37,TH,1684993498
119,turpan,42.9333,89.1667,305.16,10,17,1.83,CN,1684993498
120,sinop,41.7711,34.8709,286.39,76,4,1.75,TR,1684993330
121,zheleznodorozhnyy,55.7503,38.0042,291.53,84,100,1.48,RU,1684993498
122,borogontsy,62.6683,131.1683,285.3,40,89,2.7,RU,1684993499
123,chul'man,56.8479,124.9104,285.32,43,70,3.21,RU,1684993499
124,coquimbo,-29.9533,-71.3436,285.0,93,0,1.54,CL,1684993499
125,cavnic,47.6667,23.8667,284.7,68,41,1.08,RO,1684993499
126,st. john's,47.5649,-52.7093,277.02,85,0,3.6,CA,1684993499
127,charters towers,-20.1,146.2667,298.18,46,21,7.91,AU,1684993500
128,port elizabeth,-33.918,25.5701,289.99,86,0,3.6,ZA,1684993456
129,dudinka,69.4058,86.1778,274.05,96,100,3.54,RU,1684993500
130,kerikeri,-35.2268,173.9474,288.1,78,7,4.64,NZ,1684993500
131,klaksvik,62.2266,-6.589,280.66,77,31,12.02,FO,1684993501
132,atherton,53.5237,-2.4935,287.53,90,83,0.92,GB,1684993501
133,chinsali,-10.5414,32.0816,291.92,67,31,2.82,ZM,1684993501
134,labytnangi,66.6572,66.4183,291.37,49,17,6.21,RU,1684993227
135,albany,42.6001,-73.9662,280.17,87,45,2.14,US,1684993228
136,thames,-37.1333,175.5333,284.62,86,14,0.53,NZ,1684993502
137,butterworth,5.3991,100.3638,306.18,65,40,4.12,MY,1684993502
138,anahuac,27.2333,-100.15,299.77,65,26,8.64,MX,1684993502
139,sihanoukville,10.6093,103.5296,303.12,79,40,2.06,KH,1684993503
140,leava,-14.3,-178.1667,299.57,85,100,6.55,WF,1684993503
141,nova sintra,14.8667,-24.7167,292.96,82,99,8.28,CV,1684993503
142,gadzhiyevo,69.2551,33.3362,282.56,69,100,7.19,RU,1684993504
143,dengzhou,37.8086,120.7508,295.0,44,100,7.24,CN,1684993504
144,serdar,38.9764,56.2757,307.79,13,3,10.58,TM,1684993504
145,okhotsk,59.3833,143.3,279.33,70,96,5.13,RU,1684993504
146,ilulissat,69.2167,-51.1,271.16,54,94,9.77,GL,1684993505
147,upington,-28.4478,21.2561,289.36,33,0,1.54,ZA,1684993245
148,lodwar,3.1191,35.5973,302.86,45,9,10.14,KE,1684993505
149,hawaiian paradise park,19.5933,-154.9731,294.28,98,100,2.57,US,1684993505
150,utrik,11.2278,169.8474,300.91,79,100,7.2,MH,1684993506
151,constantia,44.1833,28.65,295.76,63,96,1.52,RO,1684993460
152,ketchikan,55.3422,-131.6461,286.41,67,0,2.06,US,1684993506
153,cill airne,52.05,-9.5167,283.63,94,17,1.69,IE,1684993507
154,okha,53.5739,142.9478,274.45,92,97,5.99,RU,1684993507
155,bel air north,39.5543,-76.3731,291.57,80,74,6.4,US,1684993234
156,pangody,65.85,74.4859,284.83,42,0,4.45,RU,1684993507
157,pizarro,4.9533,-77.366,300.84,78,100,3.06,CO,1684993508
158,piti village,13.4626,144.6933,300.18,87,100,15.21,GU,1684993508
159,raja,8.4596,25.678,302.5,46,83,2.38,SS,1684993508
160,yangjiang,21.85,111.9667,304.49,67,90,5.77,CN,1684993509
161,mount gambier,-37.8333,140.7667,283.96,75,88,4.84,AU,1684993509
162,zyryanskoye,56.8306,86.6258,285.05,35,43,4.34,RU,1684993509
163,vodnyy,63.5046,53.4095,297.11,39,92,4.02,RU,1684993509
164,kununurra,-15.7667,128.7333,303.14,17,8,3.6,AU,1684993510
165,puerto ayora,-0.7393,-90.3518,296.79,96,22,0.45,EC,1684993510
166,yangambi,0.8102,24.4336,296.13,94,54,0.53,CD,1684993510
167,sansanne-mango,10.3592,0.4708,298.44,79,97,2.43,TG,1684993510
168,hermanus,-34.4187,19.2345,285.26,96,100,3.05,ZA,1684993511
169,malabar,-33.9667,151.25,293.16,43,0,3.6,AU,1684993511
170,nikolayevsk-on-amure,53.1406,140.73,288.96,49,9,1.82,RU,1684993511
171,siavonga,-16.5382,28.7088,294.21,56,0,2.86,ZM,1684993511
172,miri,4.4148,114.0089,306.23,75,40,3.09,MY,1684993512
173,plouzane,48.3833,-4.6167,285.18,97,100,3.09,FR,1684993512
174,walvis bay,-22.9575,14.5053,286.53,100,100,1.54,NA,1684993512
175,bemidji,47.4736,-94.8803,281.79,68,0,6.17,US,1684993513
176,buka,40.8108,69.1986,300.26,18,0,2.9,UZ,1684993513
177,namibe,-15.1961,12.1522,292.34,80,0,5.02,AO,1684993513
178,joshimath,30.5667,79.5667,290.33,100,100,3.15,IN,1684993513
179,yung shue wan,22.2333,114.1167,303.89,84,78,2.24,HK,1684993514
180,lashio,22.9333,97.75,300.87,59,71,1.58,MM,1684993514
181,nuku'alofa,-21.1333,-175.2,296.34,83,75,2.06,TO,1684993514
182,ust-nera,64.5667,143.2,278.02,79,76,2.35,RU,1684993515
183,bhimunipatnam,17.8833,83.4333,307.88,64,21,8.85,IN,1684993515
184,vila franca do campo,37.7167,-25.4333,289.38,90,48,2.37,PT,1684993515
185,ulladulla,-35.35,150.4667,291.64,39,100,5.81,AU,1684993515
186,yemva,62.59,50.8594,290.22,80,99,1.53,RU,1684993516
187,tolanaro,-25.0319,46.9987,293.19,73,75,1.03,MG,1684993516
188,ust'-ilimsk,58.0006,102.6619,279.01,84,100,6.35,RU,1684993516
189,abatskoye,56.2875,70.4555,294.54,46,98,5.37,RU,1684993516
190,tofol,5.3248,163.0078,301.64,73,48,4.01,FM,1684993517
191,lebu,-37.6167,-73.65,285.2,83,88,4.27,CL,1684993517
192,kavieng,-2.5744,150.7967,300.97,79,100,7.03,PG,1684993517
193,novoutkinsk,56.993,59.5571,299.38,27,35,1.44,RU,1684993518
194,sao gabriel da cachoeira,-0.1303,-67.0892,295.89,98,100,0.74,BR,1684993518
195,touros,-5.1989,-35.4608,298.99,85,64,6.09,BR,1684993518
196,saint-philippe,-21.3585,55.7679,296.92,87,100,4.86,RE,1684993519
197,pitimbu,-7.4706,-34.8086,297.48,96,9,2.49,BR,1684993519
198,orhei,47.3831,28.8231,293.44,68,0,3.23,MD,1684993519
199,jamestown,42.097,-79.2353,281.92,70,0,3.09,US,1684993519
200,barrouallie,13.2333,-61.2667,298.85,82,23,3.88,VC,1684993520
201,pyshma,56.9523,63.2513,298.07,37,52,2.29,RU,1684993520
202,acultzingo,18.7167,-97.3167,291.78,85,100,0.75,MX,1684993520
203,kupang,-10.1667,123.5833,305.47,58,40,4.63,ID,1684993520
204,caleta de carquin,-11.0925,-77.6267,294.33,83,82,5.66,PE,1684993521
205,caluula,11.9661,50.7569,303.27,65,90,2.16,SO,1684993521
206,mana,5.6592,-53.7767,298.23,92,100,2.17,GF,1684993521
207,enewetak,11.3474,162.3373,300.8,79,80,6.61,MH,1684993522
208,hammerfest,70.6634,23.6821,282.4,49,0,6.17,NO,1684993522
209,kerema,-7.9631,145.7785,299.29,92,100,1.15,PG,1684993522
210,bakanas,44.8081,76.2772,297.99,14,2,3.73,KZ,1684993522
211,san patricio,28.017,-97.5169,300.07,86,63,2.43,US,1684993523
212,ivot,53.6756,34.1872,290.92,74,86,2.6,RU,1684993523
213,tambo grande,-4.9269,-80.3447,298.06,71,100,2.69,PE,1684993523
214,saint-francois,46.4154,3.9054,282.97,81,0,1.54,FR,1684993523
215,george town,5.4112,100.3354,306.12,66,40,4.12,MY,1684993524
216,trairi,-3.2778,-39.2689,296.4,94,88,2.81,BR,1684993524
217,zhezqazghan,47.7833,67.7667,297.47,19,0,5.0,KZ,1684993524
218,brookings,44.3114,-96.7984,293.25,61,0,7.72,US,1684993431
219,nyurba,63.2842,118.3319,285.0,40,51,3.6,RU,1684993525
220,karauli,26.5,77.0167,306.9,34,51,4.3,IN,1684993525
221,chistopol',55.3631,50.6424,294.16,51,10,5.71,RU,1684993525
222,taloqan,36.7361,69.5345,300.86,20,3,3.97,AF,1684993525
223,kailua-kona,19.6406,-155.9956,300.13,84,75,5.14,US,1684993526
224,aranda de duero,41.6704,-3.6892,282.97,85,84,1.48,ES,1684993359
225,gambiran satu,-8.3939,114.1464,302.63,57,23,3.36,ID,1684993526
226,samana,19.2056,-69.3369,297.63,90,100,2.18,DO,1684993526
227,alofi,-19.0595,-169.9187,297.09,78,100,2.06,NU,1684993527
228,mar del plata,-38.0023,-57.5575,288.76,99,100,0.89,AR,1684993527
229,gryazi,52.4966,39.9359,294.05,77,98,2.49,RU,1684993237
230,fort st. john,56.2499,-120.8529,286.09,71,75,4.12,CA,1684993342
231,mahina,-17.5065,-149.489,299.68,78,20,2.57,PF,1684993527
232,mahibadhoo,3.7833,72.9667,301.85,73,98,3.17,MV,1684993528
233,abepura,-2.6333,140.5833,305.6,55,40,2.57,ID,1684993528
234,dwarka,22.2394,68.9678,303.35,75,84,9.79,IN,1684993528
235,saipan,15.1355,145.701,302.54,100,75,9.39,MP,1684993528
236,roeselare,50.95,3.1333,285.8,84,45,2.24,BE,1684993529
237,chilecito,-29.1619,-67.4974,288.38,84,1,2.14,AR,1684993529
238,san antonio de pale,-1.4014,5.6325,299.45,89,100,5.8,GQ,1684993529
239,sao tome,0.3365,6.7273,300.39,81,100,3.08,ST,1684993529
240,katsuren-haebaru,26.3369,127.8719,300.58,72,75,3.09,JP,1684993530
241,mount isa,-20.7333,139.5,302.02,23,3,2.57,AU,1684993530
242,anjad,22.0333,75.05,310.27,29,2,8.21,IN,1684993530
243,port alfred,-33.5906,26.891,292.25,46,61,2.08,ZA,1684993530
244,antsiranana,-12.2787,49.2917,299.57,83,40,0.0,MG,1684993530
245,assab,13.0092,42.7394,304.5,66,5,11.72,ER,1684993531
246,bardai,11.65,7.2333,298.78,64,98,4.84,NG,1684993531
247,margate,51.3813,1.3862,285.86,79,16,3.13,GB,1684993531
248,udachny,66.4167,112.4,277.29,59,100,6.32,RU,1684993531
249,yershov,51.3513,48.2766,298.7,35,89,7.55,RU,1684993532
250,sol'-iletsk,51.1631,54.9918,299.25,29,2,4.61,RU,1684993532
251,kismayo,-0.3582,42.5454,300.78,69,53,4.92,SO,1684993532
252,rikaze,29.25,88.8833,291.65,17,71,1.49,CN,1684993532
253,petropavlovsk-kamchatsky,53.0452,158.6483,284.48,47,75,6.0,RU,1684993533
254,tenenkou,14.4572,-4.9169,304.86,16,84,6.29,ML,1684993533
255,vryheid,-27.7695,30.7917,287.35,34,16,1.13,ZA,1684993533
256,orkney,-26.9802,26.6727,288.99,42,9,5.54,ZA,1684993533
257,hassi messaoud,31.6804,6.0729,293.07,42,26,1.54,DZ,1684993534
258,tuy hoa,13.0833,109.3,305.0,62,64,4.92,VN,1684993534
259,al bardiyah,31.7561,25.0865,292.93,77,2,7.09,LY,1684993534
260,rudsar,37.1376,50.288,298.14,57,97,2.53,IR,1684993534
261,sabang,5.8933,95.3214,302.25,76,65,7.39,ID,1684993535
262,amuntai,-2.4177,115.2494,307.77,46,92,0.93,ID,1684993535
263,iskateley,67.6803,53.1512,292.98,54,98,4.97,RU,1684993535
264,necochea,-38.5473,-58.7368,289.1,92,100,0.84,AR,1684993535
265,qamdo,31.1667,97.2333,288.41,17,30,4.2,CN,1684993535
266,lundazi,-12.2929,33.1782,293.6,59,0,2.95,ZM,1684993536
267,ha'il,27.5219,41.6907,300.16,34,48,6.17,SA,1684993366
268,machico,32.7,-16.7667,290.77,82,20,1.03,PT,1684993536
269,tomakivka,47.8157,34.7414,293.81,72,97,2.2,UA,1684993536
270,susuman,62.7833,148.1667,280.36,41,90,2.63,RU,1684993537
271,mount pearl,47.5166,-52.7813,276.56,86,0,3.6,CA,1684993537
272,whangarei,-35.7317,174.3239,285.07,92,7,1.31,NZ,1684993537
273,tawau,4.2498,117.8871,305.22,64,81,2.25,MY,1684993537
274,awash,8.9833,40.1667,301.63,42,4,1.37,ET,1684993537
275,geraldton,-28.7667,114.6,294.38,32,0,8.75,AU,1684993538
276,flying fish cove,-10.4217,105.6791,300.97,78,100,6.17,CX,1684993538
277,manicore,-5.8092,-61.3003,296.14,98,95,0.54,BR,1684993538
278,toliara,-23.35,43.6667,293.94,63,0,5.31,MG,1684993538
279,elliot,-31.3333,27.85,286.14,35,100,4.04,ZA,1684993539
280,cozumel,20.5083,-86.9458,299.79,83,0,2.91,MX,1684993263
281,minamata,32.2167,130.4,296.27,54,91,1.27,JP,1684993539
282,fisterra,42.9049,-9.2629,289.27,79,50,5.13,ES,1684993539
283,saurimo,-9.6608,20.3916,292.99,63,8,2.11,AO,1684993539
284,taltal,-25.4,-70.4833,289.7,82,4,0.54,CL,1684993540
285,kurumkan,54.3,110.3,280.15,57,50,3.82,RU,1684993540
286,sainyabuli,19.25,101.75,305.46,51,59,1.26,LA,1684993540
287,nueva gerona,21.8833,-82.8,299.15,75,3,2.85,CU,1684993541
288,nyala,12.05,24.8833,306.26,25,2,0.59,SD,1684993541
289,primorskiy,43.0983,131.5875,292.03,59,54,4.64,RU,1684993541
290,eureka,40.8021,-124.1637,285.48,84,38,0.45,US,1684993490
291,howrah,22.5892,88.3103,307.15,62,20,2.57,IN,1684993479
292,iowa park,33.9515,-98.6687,294.79,79,0,4.12,US,1684993542
293,carbonear,47.7332,-53.2148,277.27,93,17,2.52,CA,1684993278
294,bayanhongor,46.7167,100.1167,282.09,36,99,4.45,MN,1684993542
295,ardestan,33.3761,52.3694,304.59,13,72,3.91,IR,1684993542
296,nishinoomote,30.7333,131.0,297.46,64,20,3.6,JP,1684993543
297,mejit,10.2753,170.8646,300.78,78,100,6.84,MH,1684993543
298,paracuru,-3.41,-39.0306,297.65,89,90,3.53,BR,1684993254
299,newman,37.3138,-121.0208,291.14,63,2,4.92,US,1684993453
300,daru,-9.0763,143.2092,298.56,87,100,6.65,PG,1684993543
301,bairnsdale,-37.8333,147.6167,292.07,42,99,3.58,AU,1684993544
302,brisas de zicatela,15.8369,-97.0419,300.27,80,100,2.23,MX,1684993544
303,port macquarie,-31.4333,152.9167,293.65,37,37,1.9,AU,1684993544
304,wick,58.4333,-3.0833,282.18,66,100,4.63,GB,1684993544
305,afaahiti,-17.75,-149.2833,298.74,78,57,2.95,PF,1684993545
306,sierra grande,-41.606,-65.3557,282.53,46,0,2.68,AR,1684993545
307,hanceville,34.0607,-86.7675,291.6,81,31,3.26,US,1684993545
308,kingston,17.997,-76.7936,300.68,82,20,2.57,JM,1684993545
309,shahrak,34.1074,64.3052,290.51,24,0,7.95,AF,1684993545
310,chhatarpur,24.9,79.6,307.59,32,83,2.43,IN,1684993546
311,chui,-33.6971,-53.4616,292.05,89,100,2.86,UY,1684993546
312,viitasaari,63.0667,25.8667,279.13,92,100,6.26,FI,1684993546
313,salalah,17.0151,54.0924,305.2,66,40,6.17,OM,1684993546
314,siwa oasis,29.2041,25.5195,297.81,45,21,8.93,EG,1684993546
315,pangai,-19.8,-174.35,297.21,69,40,1.03,TO,1684993547
316,east london,-33.0153,27.9116,295.67,33,0,2.57,ZA,1684993547
317,esmeraldas,-19.7625,-44.3139,291.63,96,1,2.51,BR,1684993547
318,belyy yar,53.6039,91.3903,287.09,26,0,5.0,RU,1684993547
319,viedma,-40.8135,-62.9967,283.0,44,25,5.32,AR,1684993548
320,fada,9.5667,8.3,295.9,84,78,0.16,NG,1684993548
321,puerto santa,-8.9906,-78.6456,295.01,86,99,4.44,PE,1684993548
322,invercargill,-46.4,168.35,286.02,74,94,3.38,NZ,1684993346
323,hasaki,35.7333,140.8333,298.31,54,97,4.65,JP,1684993548
324,ta`u,-14.2336,-169.5144,300.78,75,51,1.1,AS,1684993549
325,punta arenas,-53.15,-70.9167,275.21,75,0,5.66,CL,1684993549
326,copala,16.65,-98.9833,300.97,73,93,2.07,MX,1684993549
327,masterton,-40.9597,175.6575,282.53,96,2,1.53,NZ,1684993549
328,lyantor,61.6195,72.1555,288.88,33,58,5.05,RU,1684993550
329,lerwick,60.1545,-1.1494,282.15,66,35,6.84,GB,1684993550
330,yarmouth,41.7057,-70.2286,285.41,92,100,12.07,US,1684993550
331,cabedelo,-6.9811,-34.8339,297.52,94,25,2.62,BR,1684993550
332,chibougamau,49.9168,-74.3659,274.94,64,0,3.6,CA,1684993550
333,balqash,46.8481,74.995,296.48,21,20,4.0,KZ,1684993551
334,waegwan,35.9917,128.3973,301.2,29,19,2.77,KR,1684993551
335,lethem,3.3803,-59.7968,298.36,88,96,2.5,GY,1684993551
336,porto novo,6.4965,2.6036,299.05,91,100,2.53,BJ,1684993551
337,maumere,-8.6199,122.2111,302.02,68,59,2.98,ID,1684993552
338,ouani,-12.1322,44.4258,299.83,64,7,3.98,KM,1684993552
339,port moresby,-9.4431,147.1797,298.83,94,100,5.14,PG,1684993552
340,bokoro,12.3807,17.0568,307.09,35,74,3.15,TD,1684993552
341,kirakira,-10.4544,161.9205,301.08,77,100,2.56,SB,1684993552
342,san juan de los morros,9.9115,-67.3538,295.71,90,55,1.02,VE,1684993553
343,san antonio,29.4241,-98.4936,297.13,74,0,3.6,US,1684993432
344,montefrio,37.3231,-4.009,283.33,76,15,0.85,ES,1684993553
345,manokwari,-0.8667,134.0833,302.05,73,97,3.58,ID,1684993553
346,el calafate,-50.3408,-72.2768,272.96,76,59,0.95,AR,1684993553
347,yuzhno-kurilsk,44.0306,145.8556,283.86,77,0,2.61,RU,1684993554
348,cuatro cienegas de carranza,26.9833,-102.0833,299.42,62,93,2.84,MX,1684993554
349,wenchang,30.904,118.4887,301.37,51,37,0.16,CN,1684993554
350,tazacorte,28.629,-17.9293,290.69,79,75,3.13,ES,1684993554
351,giddings,30.1827,-96.9364,294.78,88,100,0.0,US,1684993555
352,agios nikolaos,35.1914,25.7133,291.35,79,0,1.69,GR,1684993555
353,muravlenko,63.7898,74.523,284.97,37,0,2.81,RU,1684993555
354,atafu village,-8.5421,-172.5159,301.15,71,90,0.91,TK,1684993555
355,tsiombe,-25.3,45.4833,294.81,51,0,4.71,MG,1684993555
356,hadibu,12.65,54.0333,303.59,60,30,0.42,YE,1684993556
357,salekhard,66.53,66.6019,291.59,48,7,6.11,RU,1684993556
358,sahaswan,28.0833,78.75,307.74,32,44,1.01,IN,1684993556
359,sao joao da barra,-21.6403,-41.0511,293.51,87,8,2.36,BR,1684993556
360,al jawf,29.5,38.75,301.09,17,6,1.4,SA,1684993556
361,manado,1.487,124.8455,302.58,79,40,2.57,ID,1684993557
362,suomussalmi,64.8869,28.9078,282.88,91,100,4.09,FI,1684993557
363,singa,13.15,33.9333,308.28,31,15,5.4,SD,1684993557
364,hami,42.8,93.45,299.15,10,1,0.68,CN,1684993477
365,nantucket,41.2835,-70.0995,285.23,93,75,9.26,US,1684993558
366,timbuktu,16.7735,-3.0074,301.91,25,52,7.42,ML,1684993558
367,kavaratti,10.5669,72.642,302.87,68,8,2.22,IN,1684993558
368,bembereke,10.2283,2.6634,295.89,85,100,2.46,BJ,1684993558
369,pasni,25.2631,63.471,303.88,73,13,6.96,PK,1684993457
370,comodoro rivadavia,-45.8667,-67.5,281.07,49,0,10.8,AR,1684993559
371,gebeit,21.0667,36.3167,305.06,32,0,1.77,SD,1684993559
372,malindi,-3.2175,40.1191,300.2,76,44,5.94,KE,1684993559
373,hobyo,5.3505,48.5268,301.33,67,98,4.97,SO,1684993560
374,thinadhoo,0.5333,72.9333,301.91,74,90,4.86,MV,1684993560
375,hilo,19.7297,-155.09,294.4,100,100,2.57,US,1684993560
376,lawas,13.764,121.0566,304.25,64,41,3.46,PH,1684993560
377,bouna,9.2667,-3.0,295.38,85,100,2.19,CI,1684993561
378,vorgashor,67.5833,63.95,285.73,71,100,6.96,RU,1684993561
379,amungan,15.3652,119.9582,302.69,71,74,1.52,PH,1684993561
380,camana,-16.6228,-72.7111,292.24,89,89,1.7,PE,1684993561
381,tura,25.5198,90.2201,304.56,44,2,2.49,IN,1684993562
382,nejo,9.5,35.5,296.48,53,86,1.28,ET,1684993562
383,arraial do cabo,-22.9661,-42.0278,289.61,89,0,1.31,BR,1684993562
384,fortuna,40.5982,-124.1573,285.33,88,100,2.06,US,1684993563
385,laojunmiao,39.8333,97.7333,290.47,13,89,3.21,CN,1684993563
386,mont-dore,-22.2833,166.5833,295.14,58,96,3.37,NC,1684993563
387,fort bragg,35.139,-79.006,291.2,68,20,0.0,US,1684993563
388,sur,22.5667,59.5289,305.89,58,16,3.34,OM,1684993563
389,jerome,42.7241,-114.5186,284.61,85,0,3.6,US,1684993564
390,sola,-13.8833,167.55,299.57,73,99,9.85,VU,1684993564
391,peace river,56.2501,-117.286,285.32,100,75,1.03,CA,1684993299
392,argo,37.6333,22.7333,293.03,55,5,1.17,GR,1684993564
393,minas de marcona,-15.2119,-75.1103,287.41,88,55,4.51,PE,1684993565
394,polyarnyy,69.1989,33.4478,285.28,54,100,8.18,RU,1684993565
395,paharpur,32.1038,70.9724,307.75,33,0,3.6,PK,1684993565
396,tralee,52.2704,-9.7026,283.59,94,34,1.62,IE,1684993565
397,armacao de buzios,-22.7469,-41.8817,292.18,85,0,2.35,BR,1684993566
398,chinde,26.8418,88.0763,293.11,90,68,2.36,NP,1684993566
399,lahaina,20.8783,-156.6825,298.15,86,21,7.96,US,1684993566
400,tokar,18.4254,37.729,305.6,59,0,4.66,SD,1684993566
401,tual,-5.6667,132.75,300.66,72,28,9.53,ID,1684993567
402,duong dong,10.2167,103.9667,303.15,70,40,2.06,VN,1684993567
403,ugoofaaru,5.6667,73.0,302.14,72,48,3.2,MV,1684993567
404,puerto asis,0.5133,-76.5007,295.07,99,100,0.88,CO,1684993567
405,boende,-0.2167,20.8667,298.18,75,19,0.62,CD,1684993568
406,pinhao,-25.6956,-51.6597,283.69,95,0,1.78,BR,1684993568
407,selkirk,50.1436,-96.8845,287.23,56,78,2.68,CA,1684993568
408,yanchep,-31.55,115.6833,292.66,45,0,5.97,AU,1684993569
409,puerto leguizamo,-0.1934,-74.7819,294.99,99,100,0.93,CO,1684993569
410,pahrump,36.2083,-115.9839,297.18,20,0,3.58,US,1684993569
411,dawei,14.0833,98.2,303.3,68,100,4.97,MM,1684993569
412,kroya,-7.6331,109.2461,302.59,62,25,4.88,ID,1684993570
413,merizo village,13.2658,144.6691,300.0,87,100,16.45,GU,1684993570
414,yaren,-0.5472,166.916,302.04,68,56,0.39,NR,1684993570
415,kakogawacho-honmachi,34.7667,134.85,296.1,56,100,4.33,JP,1684993472
416,zaozersk,69.4005,32.4476,285.33,52,100,8.9,RU,1684993571
417,alo,7.4178,6.7371,298.4,94,79,1.24,NG,1684993571
418,wangkui,46.8333,126.5,294.26,45,100,10.41,CN,1684993571
419,llallagua,-18.4167,-66.6333,275.69,24,43,2.42,BO,1684993571
420,aykhal,66.0,111.5,273.82,87,100,6.29,RU,1684993572
421,zonguldak,41.25,31.8333,285.62,84,96,0.8,TR,1684993572
422,nabire,-3.3667,135.4833,302.52,70,53,2.73,ID,1684993572
423,greymouth,-42.4667,171.2,287.05,75,41,1.47,NZ,1684993505
424,castillos,-34.1667,-53.8333,292.6,85,100,0.65,UY,1684993573
425,bomadi,5.1593,5.9252,298.42,94,100,1.61,NG,1684993573
426,buala,-8.145,159.5921,300.3,81,96,1.02,SB,1684993573
427,shalqar,47.8333,59.6,299.5,21,0,3.69,KZ,1684993573
428,vadso,70.0744,29.7487,284.64,58,20,6.69,NO,1684993574
429,lubao,14.9167,120.55,307.99,55,78,2.67,PH,1684993574
430,livramento do brumado,-13.6431,-41.8406,292.24,85,50,3.26,BR,1684993574
431,sona,45.4388,10.8255,290.84,89,40,2.06,IT,1684993574
432,wanning,18.8003,110.3967,308.34,49,87,4.44,CN,1684993574
433,bougouni,11.417,-7.479,300.69,61,98,2.37,ML,1684993575
434,luanda,-8.8368,13.2343,298.15,83,75,2.57,AO,1684993335
435,la'ie,21.6477,-157.9253,299.13,75,4,3.13,US,1684993575
436,arba minch,6.0333,37.55,295.55,77,81,0.95,ET,1684993575
437,durban,-29.8579,31.0292,292.6,63,46,1.34,ZA,1684993547
438,lorengau,-2.0226,147.2712,299.94,84,100,4.31,PG,1684993576
439,arawa,-6.2132,155.5367,298.99,88,100,6.73,PG,1684993576
440,tucuma,-0.1833,-50.05,297.44,94,93,2.71,BR,1684993576
441,kuhmo,64.1333,29.5167,287.39,63,100,4.71,FI,1684993577
442,vanino,49.0869,140.2543,283.58,80,78,2.16,RU,1684993577
443,nouadhibou,20.931,-17.0347,292.14,82,100,4.63,MR,1684993577
444,huilong,31.8111,121.655,297.44,60,82,4.72,CN,1684993577
445,wattegama,6.7989,81.4808,308.48,41,15,3.18,LK,1684993578
446,revda,56.801,59.9303,299.12,25,40,1.77,RU,1684993578
447,narrabri,-30.3167,149.7833,293.64,23,60,3.37,AU,1684993578
448,isola di capo rizzuto,38.96,17.0933,294.36,60,44,0.52,IT,1684993578
449,ramos arizpe,25.55,-100.9667,293.12,79,100,3.12,MX,1684993579
450,cockburn town,21.4612,-71.1419,300.33,81,62,5.31,TC,1684993579
451,arkhipo-osipovka,44.37,38.52,291.87,85,51,2.81,RU,1684993579
452,shimoda,34.6667,138.95,293.76,67,100,3.78,JP,1684993580
453,mugia,43.1041,-9.2179,289.35,86,85,11.92,ES,1684993580
454,fortaleza,-3.7227,-38.5247,299.22,83,0,2.57,BR,1684993419
455,zhangjiakou,40.81,114.8794,294.5,29,83,7.38,CN,1684993580
456,yanykurgan,43.915,67.2481,300.93,17,46,7.83,KZ,1684993581
457,el granada,37.5027,-122.4694,287.05,86,100,4.12,US,1684993581
458,bonthe,7.5264,-12.505,297.01,95,100,1.98,SL,1684993581
459,alba posse,-27.5698,-54.6826,289.82,81,0,1.37,AR,1684993581
460,gumdag,39.2061,54.5906,310.29,12,48,7.99,TM,1684993581
461,shira,54.4911,89.9531,283.93,32,76,4.58,RU,1684993582
462,uliastay,47.7417,96.8444,281.91,52,95,2.31,MN,1684993582
463,illizi,26.4833,8.4667,296.04,10,100,1.96,DZ,1684993582
464,alice springs,-23.7,133.8833,299.9,12,0,4.63,AU,1684993583
465,inarajan village,13.2736,144.7484,300.23,87,100,14.08,GU,1684993583
466,cooranbong,-33.0833,151.4333,295.12,42,91,3.57,AU,1684993583
467,santa ana de yacuma,-13.75,-65.4333,296.44,89,88,2.23,BO,1684993583
468,tabalah,19.95,42.4,296.73,38,4,1.28,SA,1684993584
469,zhumysker,49.3333,49.4,300.59,24,100,9.01,KZ,1684993584
470,weno,7.4515,151.8468,301.81,65,98,0.82,FM,1684993584
471,forster,-32.1667,152.5167,293.87,51,69,2.99,AU,1684993584
472,phan rang-thap cham,11.5667,108.9833,308.82,46,80,1.28,VN,1684993585
473,bovalino,38.149,16.174,292.12,66,100,0.83,IT,1684993585
474,bubaque,11.2833,-15.8333,300.44,68,93,2.88,GW,1684993585
475,skelleftea,64.7507,20.9528,282.35,57,0,6.17,SE,1684993586
476,guerrero negro,27.9769,-114.0611,289.05,81,10,7.24,MX,1684993586
477,leun,50.5513,8.3584,285.43,89,0,2.3,DE,1684993586
478,wickenburg,33.9686,-112.7296,300.48,22,0,3.4,US,1684993587
479,sakakah,29.9697,40.2064,300.91,25,42,2.72,SA,1684993587
480,mojkovac,42.9604,19.5833,288.03,83,92,1.19,ME,1684993587
481,al wajh,26.2455,36.4525,304.12,35,0,2.06,SA,1684993587
482,turinsk,58.0458,63.696,298.19,35,83,2.79,RU,1684993588
483,bousso,10.4795,16.7117,305.09,42,95,2.92,TD,1684993588
484,sao jose da coroa grande,-8.8978,-35.1478,295.21,97,27,1.88,BR,1684993588
485,keflavik,64.0049,-22.5624,279.39,81,100,10.8,IS,1684993588
486,valparaiso,-33.0393,-71.6273,289.26,61,75,1.54,CL,1684993589
487,katsuura,35.1333,140.3,293.34,62,100,4.06,JP,1684993589
488,balykshi,47.0667,51.8667,303.15,16,49,12.0,KZ,1684993589
489,altai,46.3722,96.2583,283.47,35,86,1.91,MN,1684993589
490,ziguinchor,12.5833,-16.2719,297.26,100,0,2.06,SN,1684993590
491,barra da estiva,-13.6261,-41.3269,288.13,93,29,2.09,BR,1684993590
492,suluktu,39.9337,69.57,295.86,26,4,5.05,KG,1684993590
493,gizo,-8.103,156.8419,300.63,81,96,3.6,SB,1684993590
494,ciudad lazaro cardenas,17.9583,-102.2,300.39,73,100,1.29,MX,1684993490
495,kapuskasing,49.4169,-82.4331,273.2,80,0,1.54,CA,1684993591
496,mogadishu,2.0371,45.3438,302.08,79,40,4.63,SO,1684993591
497,san rafael,-34.6177,-68.3301,287.19,45,84,1.34,AR,1684993592
498,wewak,-3.5534,143.6268,299.79,85,100,3.09,PG,1684993592
499,mega,4.05,38.3,289.98,82,42,7.23,ET,1684993592
500,veinticinco de mayo,-35.4323,-60.1727,289.25,100,68,1.34,AR,1684993592
501,tionk essil,12.7856,-16.5217,297.18,73,59,3.49,SN,1684993593
502,paulden,34.8856,-112.4682,292.99,39,0,1.79,US,1684993568
503,port saint john's,-31.6229,29.5448,292.59,50,100,3.56,ZA,1684993593
504,tyukhtet,56.5389,89.3011,283.65,35,49,2.99,RU,1684993593
505,kingscliff,-28.2667,153.5667,295.24,53,0,6.17,AU,1684993593
506,dubbo,-32.25,148.6167,295.22,21,86,7.72,AU,1684993594
507,zacharo,37.4833,21.65,292.64,62,29,1.51,GR,1684993594
508,tumayr,25.7039,45.868,305.31,23,99,0.98,SA,1684993594
509,monchegorsk,67.9397,32.8739,283.28,79,100,2.41,RU,1684993594
510,albertina,-22.2008,-46.6158,286.71,86,18,3.77,BR,1684993594
511,tevriz,57.509,72.4042,291.36,66,57,4.73,RU,1684993595
512,holualoa,19.6228,-155.9522,298.06,83,75,5.14,US,1684993348
513,dikhil,11.5,42.1667,303.2,50,12,4.95,DJ,1684993595
514,floro,61.5996,5.0328,281.06,81,40,3.6,NO,1684993595
515,achinsk,56.2694,90.4993,282.63,39,66,2.96,RU,1684993596
516,san luis de la loma,17.2706,-100.8939,300.59,77,100,1.46,MX,1684993596
517,hultsfred,57.4882,15.8436,287.49,63,83,3.74,SE,1684993596
518,broome,42.2506,-75.833,279.74,90,34,1.34,US,1684993596
519,carolina beach,34.0352,-77.8936,292.19,51,96,5.4,US,1684993596
520,mormugao,15.4,73.8,304.74,55,40,4.12,IN,1684993597
521,carauari,-4.8828,-66.8958,296.03,99,100,0.67,BR,1684993444
522,pacific grove,36.6177,-121.9166,286.12,86,100,5.14,US,1684993317
523,notodden,59.5594,9.2585,284.38,48,0,1.67,NO,1684993597
524,kourou,5.1552,-52.6478,297.18,93,100,2.1,GF,1684993598
525,belmonte,-15.8631,-38.8828,295.98,88,16,3.3,BR,1684993598
526,ayorou,14.7308,0.9174,305.52,45,68,6.43,NE,1684993598
527,languyan,5.2618,120.0807,302.78,72,100,1.81,PH,1684993598
528,vernon,50.2581,-119.2691,287.35,71,99,1.54,CA,1684993599
529,xinyu,27.8043,114.9334,302.63,65,99,2.43,CN,1684993599
530,botro,7.8525,-5.3106,297.86,99,97,1.66,CI,1684993599
531,belozersk,60.0326,37.7957,287.28,90,94,2.92,RU,1684993599
532,stillwater,36.1156,-97.0584,293.3,76,75,2.57,US,1684993536
533,lamu,-2.2717,40.902,301.27,74,4,3.82,KE,1684993600
534,kencong,-8.2833,113.3667,302.12,65,2,4.06,ID,1684993600
535,brigantine,39.4101,-74.3646,288.82,72,31,1.79,US,1684993600
536,luderitz,-26.6481,15.1594,286.06,89,29,4.88,NA,1684993601
537,bhamo,24.2667,97.2333,309.64,37,58,0.49,MM,1684993601
538,eraan,9.0629,117.7016,301.97,75,99,4.67,PH,1684993601
539,akcaabat,41.0212,39.5715,289.08,100,75,2.57,TR,1684993601
540,upata,8.0086,-62.3989,297.7,96,71,2.32,VE,1684993601
541,boyolangu,-8.1181,111.8935,301.79,67,27,4.45,ID,1684993602
542,konarka,19.9,86.1167,309.37,62,34,6.99,IN,1684993602
543,genhe,50.7833,121.5167,282.96,89,100,2.83,CN,1684993602
544,thunder bay,48.4001,-89.3168,272.14,86,0,1.54,CA,1684993602
545,krasnyy yar,46.5331,48.3456,301.11,38,56,7.62,RU,1684993603
546,kisaran,2.9845,99.6158,303.59,76,46,1.64,ID,1684993603
547,indramayu,-6.3264,108.32,303.14,59,3,5.31,ID,1684993603
548,hirara,24.8,125.2833,301.07,78,75,2.57,JP,1684993603
549,copiapo,-27.3667,-70.3333,285.98,63,0,0.3,CL,1684993603
550,al jahra',29.3375,47.6581,306.98,27,99,5.6,KW,1684993604
551,magong,23.5654,119.5863,297.74,84,32,3.84,TW,1684993604
552,cestos city,5.46,-9.5828,299.25,88,82,3.55,LR,1684993604
553,agat village,13.3886,144.6585,300.21,87,100,15.32,GU,1684993604
554,san jose de jachal,-30.2406,-68.7469,285.74,59,2,0.84,AR,1684993605
555,jayapura,-2.5333,140.7,305.81,84,98,1.49,ID,1684993605
556,longavi,-35.9667,-71.6833,283.3,86,100,1.22,CL,1684993605
557,tsiroanomandidy,-18.7667,46.0333,292.84,63,16,0.91,MG,1684993605
558,yanam,16.7333,82.2167,310.9,48,43,4.15,IN,1684993606
559,hanko,59.8333,22.95,287.12,92,98,3.56,FI,1684993606
560,salahonda,2.1019,-78.7217,299.76,82,100,3.34,CO,1684993606
561,farafangana,-22.8167,47.8333,293.78,81,81,2.97,MG,1684993606
562,kavarna,43.4333,28.3333,293.3,71,42,0.95,BG,1684993607
563,prince rupert,54.3161,-130.3201,284.2,93,0,5.14,CA,1684993607
564,umm kaddadah,13.6017,26.6876,306.28,18,2,2.98,SD,1684993607
565,uturoa,-16.7333,-151.4333,300.11,77,42,4.23,PF,1684993607
566,guiuan,11.0333,125.7247,302.74,69,76,1.85,PH,1684993608
567,zeribet el oued,34.6828,6.5111,295.05,50,8,4.25,DZ,1684993608
568,gargalianoi,37.0667,21.6333,292.79,64,53,0.73,GR,1684993608
569,cannonvale,-20.2833,148.7,294.81,64,49,7.33,AU,1684993608
570,diamantino,-14.4086,-56.4461,294.2,67,99,2.44,BR,1684993609
571,urumqi,43.801,87.6005,295.68,20,0,7.0,CN,1684993513
572,gorontalo,0.5412,123.0595,303.97,65,52,2.66,ID,1684993609
573,conde,-7.2597,-34.9075,296.85,100,40,4.12,BR,1684993609
574,rabaul,-4.1967,152.1721,299.83,77,100,1.19,PG,1684993609
575,siocon,7.7061,122.1353,303.0,68,94,2.07,PH,1684993610
576,acapulco de juarez,16.8634,-99.8901,302.05,74,75,2.57,MX,1684993610
577,usinsk,65.9939,57.5281,294.48,48,93,6.69,RU,1684993610
578,praia da vitoria,38.7333,-27.0667,290.29,88,75,4.33,PT,1684993610
579,thakhek,17.4103,104.8307,299.21,53,98,1.92,LA,1684993610
580,n'zeto,-7.2312,12.8666,297.18,89,100,4.48,AO,1684993611
581,flin flon,54.7682,-101.865,286.77,70,86,3.2,CA,1684993611
582,goure,13.9835,10.2704,303.11,40,60,3.1,NE,1684993611
583,fort mcmurray,56.7268,-111.381,284.92,82,100,3.09,CA,1684993611
584,salas,43.4118,-6.2602,285.65,94,100,0.93,ES,1684993612
585,dauphin,51.1494,-100.0502,288.23,67,75,4.63,CA,1684993612
586,cidreira,-30.1811,-50.2056,292.48,89,100,4.93,BR,1684993612
